id_plant,ds_plant,id_country,id_state,ds_city,latitude,longitude,plant_manager
CA001,Los Angeles,US,CA,Los Angeles,34.052235,-118.243683,Michael Carter
TX012,Houston,US,TX,Houston,29.760427,-95.369804,Sandra Williams
NY023,New York,US,NY,New York City,40.712776,-74.005974,James Thompson
IL034,Chicago,US,IL,Chicago,41.878113,-87.629799,Patricia Moore
FL045,Miami,US,FL,Miami,25.774173,-80.190262,Robert Davis
OH056,Columbus,US,OH,Columbus,39.961178,-82.998795,Jennifer Wilson
WA007,Seattle,US,WA,Seattle,47.606209,-122.332071,Kevin Harris
